<?xml version="1.0" encoding="UTF-8"?>
<kml xmlns="http://www.opengis.net/kml/2.2">
  <Placemark>
    <name>Pizzeria Krokodyl</name>
    <description>Najlepsza pizza w mieście.</description>
    <Point>
      <coordinates>54.401328,18.608647,0</coordinates>
    </Point>  
  </Placemark>
   <Placemark>
    <name>Parafia pw Opatrzności Bozej</name>
    <description>Parafia z księdzem którego szybkość mowy jest mniejsza niż leniwca.</description>
    <Point>
      <coordinates>54.400744,18.609822,0</coordinates>
    </Point>  
  </Placemark>
   <Placemark>
    <name>przystanek Leszczynskich</name>
    <description>Przystanek autobusowy linii 127, 154.</description>
    <Point>
      <coordinates>54.399577,18.607091,0</coordinates>
    </Point>  
  </Placemark>
   <Placemark>
    <name>Zielony pomnik</name>
    <description>Pomnik im Jana Pawła II w jego parku.</description>
    <Point>
      <coordinates>54.400008,18.605095,0</coordinates>
    </Point>  
  </Placemark>
   <Placemark>
    <name>Przedszkole nr 88</name>
    <description>Przedszkole stanowiące 1 etap edukacji dzieci.</description>
    <Point>
      <coordinates>54.400354,18.606063,0</coordinates>
    </Point>  
  </Placemark>
</kml>
